ISO2	M49	name	lat	lon	pop2005	currencyName	currencyNumeric	HDI	isIndependent	totalMig	inMig	outMig	inPercent	languages
US	840	United States	39.622	-98.606	299846449	US Dollar	840	0.915818181818	Yes	26771583	24882946	1888637	92.95	en
MX	484	Mexico	23.951	-102.535	104266392	Mexican Peso	484	0.734181818182	Yes	14199328	1042962	13156366	7.35	es
GB	826	United Kingdom	53	-1.6	60244834	Pound Sterling	826	0.848636363636	Yes	5131347	2454119	2677228	47.83	en
FR	250	France	46.565	2.55	60990544	Euro	978	0.86	Yes	4466441	3280596	1185845	73.45	fr
ES	724	Spain	40.227	-3.649	43397491	Euro	978	0.847454545455	Yes	4425871	3442968	982903	77.79	es
CA	124	Canada	59.081	-109.433	32270507	Canadian Dollar	124	0.895090909091	Yes	3654187	2573692	1080495	70.43	en/fr
DE	276	Germany	51.11	9.851	82652369	Euro	978	0.882	Yes	3167252	1074017	2093235	33.91	de
PT	620	Portugal	40.309	-8.058	10528226	Euro	978	0.783181818182	Yes	2295015	646026	1648989	28.15	pt
CO	170	Colombia	3.9	-73.076	4494579	Colombian Peso	170	0.677	Yes	2263170	95793	2167377	4.23	es
MA	504	Morocco	32.706	-5.758	30494991	Moroccan Dirham	504	0.540090909091	Yes	2205391	4961	2200430	0.22	ar
NL	528	Netherlands	52.077	5.389	1632769	Euro	978	0.894272727273	Yes	1567184	836837	730347	53.40	nl
VE	862	Venezuela	7.125	-66.166	26725573	Bolivar	937	0.704727272727	Yes	1557160	1014998	542162	65.18	es
NG	566	Nigeria	9.594	8.105	141356083	Naira	566	0.4545	Yes	1514794	655458	859336	43.27	en
CU	192	Cuba	21.297	-77.781	11259905	Cuban Peso	192	0.740818181818	Yes	1418075	9605	1408470	0.68	es
DO	214	Dominican Republic	19.015	-70.729	9469601	Dominican Peso	214	0.659636363636	Yes	1398317	355335	1042982	25.41	es
BR	76	Brazil	-10.772	-53.089	186830759	Brazilian Real	986	0.683	Yes	1283472	337052	946420	26.26	pt
AR	32	Argentina	-35.377	-65.167	38747148	Argentine Peso	32	0.771545454545	Yes	1164133	487647	676486	41.89	es
ZA	710	South Africa	-30.558	23.121	47938663	Rand	710	0.612363636364	Yes	1159232	714692	444540	61.65	af/en
HT	332	Haiti	19.142	-72.278	9296291	US Dollar	840	0.425375	Yes	1149483	26891	1122592	2.34	fr
JM	388	Jamaica	18.151	-77.32	2682469	Jamaican Dollar	388	0.697545454545	Yes	1096450	28412	1068038	2.59	en
GT	320	Guatemala	15.256	-90.398	12709564	Quetzal	320	0.544363636364	Yes	1085235	49598	1035637	4.57	es
BE	56	Belgium	50.643	4.664	10398049	Euro	978	0.873181818182	Yes	1030232	643474	386758	62.46	nl/fr
IE	372	Ireland	53.177	-8.152	4143294	Euro	978	0.885	Yes	1025157	374702	650455	36.55	en
GH	288	Ghana	7.96	-1.207	2253501	Ghana Cedi	936	0.497636363636	Yes	834631	212619	622012	25.47	en
CI	384	Ivory Coast	7.632	-5.556	18584701	CFA Franc BCEAO	952	0.404454545455	Yes	751349	440553	310796	58.63	fr
GN	324	Guinea	10.439	-10.942	9002656	Guinea Franc	324	0.344625	Yes	735996	364869	371127	49.57	fr
CL	152	Chile	-23.389	-69.433	16295102	Chilean Peso	152	0.776636363636	Yes	680051	171959	508092	25.29	es
NI	558	Nicaragua	12.84	-85.034	5462539	Cordoba Oro	558	0.560636363636	Yes	677222	34637	642585	5.11	es
HN	340	Honduras	14.819	-86.863	683411	Lempira	340	0.585636363636	Yes	659606	19083	640523	2.89	es
CD	180	Democratic Republic of the Congo	-2.876	23.654	58740547	Congolese Franc	976	0.280545454545	Yes	633871	146954	486917	23.18	fr
SN	686	Senegal	15.013	-14.881	1177034	CFA Franc BCEAO	952	0.433545454545	Yes	570318	143265	427053	25.12	fr
BJ	204	Benin	10.541	2.469	8490301	CFA Franc BCEAO	952	0.395727272727	Yes	568381	114908	453473	20.22	fr
LR	430	Liberia	6.682	-9.657	3441796	Liberian Dollar	430	0.3392	Yes	560479	215637	344842	38.47	en
SE	752	Sweden	62.011	15.27	9038049	Swedish Krona	752	0.890909090909	Yes	554669	316399	238270	57.04	sv
TG	768	Togo	8.799	1.081	6238572	CFA Franc BCEAO	952	0.431363636364	Yes	541954	119952	422002	22.13	fr
AO	24	Angola	-12.296	17.544	16095214	Kwanza	973	0.460333333333	Yes	523442	72087	451355	13.77	pt
CR	188	Costa Rica	9.971	-83.946	4327228	Costa Rican Colon	188	0.728	Yes	502097	379210	122887	75.53	es
CG	178	Republic of the Congo	-0.055	15.986	3609851	CFA Franc BEAC	950	0.511181818182	Yes	486658	343744	142914	70.63	fr
GY	328	Guyana	4.792	-58.974	739472	Guyana Dollar	328	0.597727272727	Yes	457943	12980	444963	2.83	en
SL	694	Sierra Leone	8.56	-11.792	5586403	Leone	694	0.313272727273	Yes	416326	91822	324504	22.06	en
CM	120	Cameroon	5.133	12.277	17795149	CFA Franc BEAC	950	0.457363636364	Yes	412092	128605	283487	31.21	fr/en
NO	578	Norway	61.152	8.74	4638836	Norwegian Krone	578	0.926272727273	Yes	382855	226561	156294	59.18	nb/nn
DK	208	Denmark	56.058	9.264	5416945	Danish Krone	208	0.877909090909	Yes	376489	172384	204105	45.79	da
TT	780	Trinidad and Tobago	10.468	-61.253	1323722	Trinidad and Tobago Dollar	780	0.736636363636	Yes	374690	14027	360663	3.74	en
UY	858	Uruguay	-32.8	-56.012	3325727	Peso Uruguayo	858	0.754090909091	Yes	356048	54963	301085	15.44	es
GA	266	Gabon	-0.591	11.797	1290693	CFA Franc BEAC	950	0.646272727273	Yes	342611	317262	25349	92.60	fr
SR	740	Suriname	4.127	-55.912	452468	Surinam Dollar	968	0.675375	Yes	263059	34014	229045	12.93	nl
PA	591	Panama	8.384	-80.92	3231502	US Dollar	840	0.739727272727	Yes	262819	119085	143734	45.31	es
GM	270	Gambia	13.453	-15.386	1617029	Dalasi	270	0.388363636364	Yes	215633	150302	65331	69.70	en
MR	478	Mauritania	20.26	-10.332	2963105	Ouguiya	478	0.433636363636	Yes	182389	63530	118859	34.83	ar
CV	132	Cape Verde	15.071	-23.634	506807	Cape Verde Escudo	132	0.57075	Yes	166688	12094	154594	7.26	pt
NA	516	Namibia	-22.133	17.218	2019677	Rand	710	0.5905	Yes	157307	24696	132611	15.70	en
GQ	226	Equatorial Guinea	1.607	10.488	484098	CFA Franc BEAC	950	0.536333333333	Yes	126751	8194	118557	6.46	fr/es/pt
BB	52	Barbados	13.153	-59.559	291933	Barbados Dollar	52	0.796454545455	Yes	115114	18167	96947	15.78	en
GW	624	Guinea-Bissau	12.125	-14.651	1596929	CFA Franc BCEAO	952	0.35725	Yes	105002	17375	87627	16.55	pt
BS	44	Bahamas	24.628	-78.014	323295	Bahamian Dollar	44	0.792333333333	Yes	101917	57140	44777	56.07	en
BZ	84	Belize	17.219	-88.602	275546	Belize Dollar	84	0.684818181818	Yes	96134	36333	59801	37.79	en
DM	212	Dominica	15.475	-61.356	67827	East Caribbean Dollar	951	0.738333333333	Yes	57296	2659	54637	4.64	en
LC	662	Saint Lucia	13.898	-60.969	16124	East Caribbean Dollar	951	0.72375	Yes	52523	6042	46481	11.50	en
IS	352	Iceland	64.764	-18.48	295732	Iceland Krona	352	0.88	Yes	45080	13737	31343	30.47	is
ST	678	São Tomé and Príncipe	0.201	6.629	152622	Dobra	678	0.50975	Yes	38593	2685	35908	6.96	pt
KN	659	Saint Kitts and Nevis	17.34	-62.769	49138	East Caribbean Dollar	951	0.74525	Yes	19670	3817	15853	19.41	en
